City_ID,City,Lat,Lng,Max Temp,Humidity,Cloudiness,Wind Speed,Pressure,Country,Date
0,Sitka,57.0531,-135.33,37.29,87,100,4.61,1018,US,1732703875
1,Bethel,41.3712,-73.414,38.66,78,0,4.61,1016,US,1732703877
2,Carutapera,-1.195,-46.02,83.05,67,64,10.45,1012,BR,1732703878
3,Tongliao,43.6125,122.2653,17.37,72,98,10.02,1004,CN,1732703879
4,São Raimundo Nonato,-9.0153,-42.6994,79.68,70,51,9.04,1014,BR,1732703880
5,Aykhal,66.0,111.5,5.14,97,86,13.87,1006,RU,1732703881
6,Weno,7.4515,151.8468,82.35,83,100,9.22,1009,FM,1732703882
7,Grytviken,-54.2811,-36.5092,34.88,74,70,3.36,988,GS,1732703883
8,Poltavka,54.3663,71.7632,16.16,85,14,7.67,1031,RU,1732703885
9,Ushuaia,-54.8,-68.3,44.26,70,20,17.27,1014,AR,1732703717
10,Iqaluit,63.7506,-68.5145,-4.27,70,20,8.05,1026,CA,1732703887
11,Stanley,54.868,-1.6985,37.42,95,75,6.91,1015,GB,1732703888
12,Bandarbeyla,9.4942,50.8122,81.79,62,99,16.67,1010,SO,1732703889
13,Correntina,-13.3433,-44.6367,70.29,94,100,4.41,1015,BR,1732703890
14,Qaqortoq,60.7167,-46.0333,21.87,73,26,9.42,1015,GL,1732703891
15,Puerto Ayora,-0.7393,-90.3518,70.3,81,98,10.4,1013,EC,1732703892
16,Arak,34.0917,49.6892,57.96,33,40,16.11,1010,IR,1732703893
17,Longyearbyen,78.2186,15.6401,12.04,85,100,12.66,1004,SJ,1732703895
18,Puerto Natales,-51.7236,-72.4875,48.15,68,100,3.49,1014,CL,1732703896
19,Adamstown,-25.066,-130.1015,72.34,83,59,20.62,1022,PN,1732703897
20,Bhamo,24.2667,97.2333,70.05,71,97,2.57,1012,MM,1732703898
21,Albany,42.6001,-73.9662,37.24,77,96,1.01,1015,US,1732703715
22,Edinburgh of the Seven Seas,-37.0676,-12.3116,57.88,86,72,28.32,1012,SH,1732703900
23,Skagen,57.7209,10.5839,43.5,80,94,7.96,1015,DK,1732703901
24,Port-aux-Français,-49.35,70.2167,38.98,70,68,20.76,1007,TF,1732703715
25,Chamdo,31.1667,97.2333,27.16,55,88,1.14,1012,CN,1732703904
26,Port Saint John's,-31.6229,29.5448,67.05,75,100,14.72,1010,ZA,1732703906
27,Sollefteå,63.1667,17.2667,24.66,89,41,3.8,1017,SE,1732703907
28,Patacamaya,-17.2333,-67.9167,51.58,71,100,4.54,1014,BO,1732703908
29,Papatowai,-46.5619,169.4708,59.16,79,88,5.39,1013,NZ,1732703909
30,George Town,5.4112,100.3354,78.73,82,40,10.36,1008,MY,1732703910
31,Waitangi,-43.9535,-176.5597,53.22,71,95,5.14,1024,NZ,1732703842
32,Nadi,-17.8,177.4167,77.0,88,40,4.61,1012,FJ,1732703913
33,Blackmans Bay,-43.0167,147.3167,60.93,95,100,1.01,1007,AU,1732703914
34,San Patricio,28.017,-97.5169,58.95,96,28,6.02,1013,US,1732703915
35,Tralee,52.2704,-9.7026,30.45,100,0,2.3,1017,IE,1732703916
36,Esim,4.8699,-2.2405,86.49,59,0,5.32,1013,GH,1732703917
37,Selfoss,63.9331,-20.9971,38.05,83,100,19.91,1007,IS,1732703918
38,Monteagudo,-19.8167,-63.9833,72.68,75,100,0.22,1006,BO,1732703919
39,Lubny,50.0163,32.9969,32.76,78,86,4.05,1024,UA,1732703922
40,Wailua Homesteads,22.0669,-159.378,72.12,87,0,5.75,1018,US,1732703923
41,Pacific Grove,36.6177,-121.9166,53.71,90,0,8.99,1020,US,1732703924
42,Ancud,-41.8697,-73.8203,47.17,90,15,4.5,1017,CL,1732703925
43,Klyuchi,52.2667,79.1667,15.67,90,10,4.5,1034,RU,1732703926
44,Karasuk,53.7377,78.0403,13.26,92,5,4.9,1034,RU,1732703927
45,Katsuura,35.1333,140.3,62.56,58,4,30.62,1007,JP,1732703928
46,Ribeira Grande,38.5167,-28.7,65.77,82,75,21.85,1000,PT,1732703929
47,Fort Bragg,35.139,-79.006,46.81,72,0,4.61,1018,US,1732703931
48,Lihue,21.9789,-159.3672,72.73,85,0,5.75,1018,US,1732703932
49,Olonkinbyen,70.9221,-8.7187,18.03,86,100,27.27,1009,SJ,1732703933
50,Cabo San Lucas,22.8909,-109.9124,71.76,62,5,9.42,1014,MX,1732703652
51,São Tomé,0.3365,6.7273,81.64,74,68,3.15,1013,ST,1732703935
52,La Sarre,48.8002,-79.1996,25.34,94,100,13.65,1004,CA,1732703936
53,Jamestown,42.097,-79.2353,35.24,84,100,7.0,1018,US,1732703937
54,Keflavik,64.0049,-22.5624,41.43,87,75,27.63,1005,IS,1732703938
55,Prineville,44.2999,-120.8345,26.11,92,0,0.0,1028,US,1732703940
56,Guarapari,-20.6667,-40.4975,75.69,69,28,7.43,1014,BR,1732703941
57,Miro Khan,27.7599,68.0921,88.86,19,0,3.24,1010,PK,1732703942
58,Lianzhou,24.7811,112.3825,54.27,46,49,5.37,1025,CN,1732703943
59,West Island,-12.1568,96.8225,82.38,94,20,11.5,1004,CC,1732703829
60,Woodlake,37.4211,-77.6793,26.42,100,0,0.0,1020,US,1732703946
61,Cooper’s Town,26.8667,-77.5167,72.32,78,0,9.64,1018,BS,1732703947
62,Nieuw Amsterdam,5.8833,-55.0833,77.02,94,0,5.75,1012,SR,1732703949
63,Lionel Town,17.8101,-77.2406,73.85,93,100,6.08,1011,JM,1732703950
64,Kenai,60.5544,-151.2583,6.89,100,0,3.44,1024,US,1732703951
65,Mogocha,53.7333,119.7667,12.24,69,100,10.36,1016,RU,1732703952
66,Santa Elena de Uairen,4.6167,-61.1333,68.79,83,46,2.13,1013,VE,1732703953
67,Mount Pearl,47.5166,-52.7813,37.96,95,100,11.5,1014,CA,1732703795
68,Mossamedes,-15.1961,12.1522,74.14,66,37,12.39,1012,AO,1732703955
69,Hermanus,-34.4187,19.2345,62.8,64,95,13.33,1020,ZA,1732703956
70,Teodoro Sampaio,-22.5325,-52.1675,85.21,50,74,8.88,1011,BR,1732703958
71,Bredasdorp,-34.5322,20.0403,65.35,54,97,16.42,1019,ZA,1732703959
72,Callao,-12.0667,-77.15,67.71,82,100,3.44,1013,PE,1732703960
73,Codrington,-38.2667,141.9667,56.61,92,44,4.79,1006,AU,1732703961
74,Zinder,13.8072,8.9881,76.96,25,63,12.66,1017,NE,1732703962
75,Nuuk,64.1835,-51.7216,18.21,73,0,14.97,1020,GL,1732703963
76,Bilibino,68.0546,166.4372,-2.97,84,98,2.37,1027,RU,1732703848
77,Hoquiam,46.9809,-123.8893,44.01,91,72,3.0,1027,US,1732703965
78,Saint Paul Harbor,57.79,-152.4072,22.51,86,0,4.61,1021,US,1732703967
79,Province of Groningen,53.25,6.75,43.12,96,75,10.36,1012,NL,1732703724
80,Bakchar,57.0186,82.0711,26.15,83,4,7.29,1032,RU,1732703969
81,Darovskoy,58.77,47.9564,28.62,88,13,4.88,1026,RU,1732703970
82,Isafjordur,66.0755,-23.124,39.24,75,75,12.66,998,IS,1732703971
83,Petropavlovsk-Kamchatskiy,53.0452,158.6483,28.99,59,0,6.71,1014,RU,1732703972
84,Rizhao,35.4275,119.4553,34.18,44,0,9.31,1019,CN,1732703973
85,Nelson Bay,-32.7167,152.15,77.09,86,99,10.0,1010,AU,1732703974
86,Thakhek,17.4103,104.8307,78.91,66,94,10.36,1015,LA,1732703694
87,Urucará,-2.5364,-57.76,80.94,70,68,4.07,1011,BR,1732703977
88,Pilar,-9.5972,-35.9567,78.73,57,99,7.29,1015,BR,1732703978
89,Yellowknife,62.456,-114.3525,-1.68,71,75,13.8,1030,CA,1732703969
90,Tambopata,-12.7333,-69.1833,73.74,93,47,2.68,1009,PE,1732703980
91,Labrador City,52.9463,-66.9114,24.71,97,100,6.91,1009,CA,1732703981
92,Villa Gesell,-37.2639,-56.973,65.68,87,0,5.84,1010,AR,1732703740
93,Rumphi,-11.0186,33.8575,93.06,23,91,9.91,1008,MW,1732703983
94,Gisborne,-38.6533,178.0042,61.48,93,99,1.99,1022,NZ,1732703984
95,Mamuju,-2.6748,118.8885,80.2,88,90,4.94,1007,ID,1732703986
96,Nova Sintra,14.8667,-24.7167,77.52,75,8,13.0,1016,CV,1732703987
97,Ulety,51.3572,112.4849,10.22,83,64,5.14,1024,RU,1732703988
98,Broome,42.2506,-75.833,36.91,80,100,8.05,1017,US,1732703989
99,Mata-Utu,-13.2816,-176.1745,82.24,80,62,13.47,1011,WF,1732703990
100,Hithadhoo,-0.6,73.0833,82.94,80,44,17.2,1007,MV,1732703991
101,Padang,-0.9492,100.3543,84.25,84,100,5.75,1007,ID,1732703992
102,Twon-Brass,4.3151,6.2418,84.67,62,19,1.92,1012,NG,1732703994
103,Kristiansund,63.1115,7.732,34.45,80,0,5.75,1016,NO,1732703995
104,Burang,30.25,81.1667,29.21,33,0,6.26,1015,CN,1732703996
105,Susuman,62.7833,148.1667,-29.65,98,21,1.34,1038,RU,1732703997
106,Ålesund,62.4723,6.1549,37.76,76,0,5.75,1015,NO,1732703998
107,Kargasok,59.0556,80.8572,31.05,72,2,13.98,1026,RU,1732703999
108,Enewetak,11.3474,162.3373,82.54,84,69,20.6,1011,MH,1732704000
109,Tura,25.5198,90.2201,66.87,82,37,3.2,1012,IN,1732704001
110,Puerto Real,36.5282,-6.1901,57.36,82,0,8.05,1023,ES,1732704003
111,Punta Arenas,-53.15,-70.9167,42.91,70,0,3.44,1014,CL,1732704004
112,Invercargill,-46.4,168.35,65.01,72,81,8.01,1013,NZ,1732703904
113,Tiksi,71.6872,128.8694,3.96,76,100,28.14,1005,RU,1732704006
114,Anadyr,64.75,177.4833,25.3,86,100,11.18,1031,RU,1732704007
115,Margaret River,-33.95,115.0667,61.79,67,0,14.79,1019,AU,1732703710
116,Kingston,17.997,-76.7936,77.95,89,75,12.66,1012,JM,1732704010
117,Cedeira,43.6797,-8.0209,59.97,64,96,17.0,1021,ES,1732704012
118,Hawaiian Paradise Park,19.5933,-154.9731,69.31,93,0,4.61,1017,US,1732704013
119,Mullsjö,63.7,19.7,25.74,79,6,6.42,1016,SE,1732704014
120,Tazovsky,67.4667,78.7,33.94,92,100,21.5,1000,RU,1732704015
121,Saint-Pierre,-21.3393,55.4781,83.88,61,20,28.77,1016,RE,1732704016
122,Caucayá,-0.1934,-74.7819,72.72,99,100,1.68,1010,CO,1732704017
123,Chui,-33.6971,-53.4616,72.43,89,57,4.32,1009,UY,1732704018
124,La Ronge,55.1001,-105.2842,-1.95,78,100,5.75,1020,CA,1732704019
125,Chibougamau,49.9168,-74.3659,28.02,93,100,6.91,1000,CA,1732704021
126,Udachny,66.4167,112.4,-1.59,97,53,6.78,1006,RU,1732704022
127,Barra de Santo Antônio,-9.4047,-35.5072,80.13,67,99,10.04,1015,BR,1732703699
128,Koh Pha Ngan,9.7578,100.0291,81.28,76,100,15.88,1008,TH,1732704024
129,Harstad,68.799,16.5293,33.15,95,66,8.01,1015,NO,1732703690
130,Yuzhno-Kurilsk,44.0306,145.8556,50.63,99,100,15.19,1001,RU,1732704026
131,Hamilton,39.1834,-84.5333,39.78,84,0,3.0,1018,US,1732703825
132,Broken Hill,-31.95,141.4333,76.06,31,0,9.28,1008,AU,1732704028
133,São João da Barra,-21.6403,-41.0511,75.29,75,55,9.26,1014,BR,1732704030
134,Meerhoven,51.4427,5.411,51.15,95,100,13.8,1012,NL,1732704031
135,Kalmunai,7.4167,81.8167,81.72,78,100,13.11,1001,LK,1732704033
136,Irecê,-11.3042,-41.8558,72.84,78,99,13.31,1015,BR,1732704034
137,Jerseyville,39.12,-90.3285,40.87,55,100,7.54,1014,US,1732704035
138,Nizhneangarsk,55.7833,109.55,10.74,89,100,2.13,1028,RU,1732704037
139,Cologne,50.9333,6.95,51.06,88,20,14.97,1015,DE,1732704038
140,Khandyga,62.6667,135.6,-4.85,99,100,1.7,1028,RU,1732704040
141,Kittilä,67.6647,24.8936,3.34,92,0,4.61,1017,FI,1732704041
142,Saipan,15.1355,145.701,79.65,90,73,8.99,1012,MP,1732704042
143,St. John's,47.5649,-52.7093,38.79,94,100,11.99,1014,CA,1732703753
144,Fale old settlement,-9.3852,-171.2468,83.55,70,66,9.51,1010,TK,1732704045
145,Inhambane,-23.865,35.3833,91.38,66,40,23.02,1005,MZ,1732704046
146,Kilindoni,-7.9139,39.6668,83.35,70,64,8.19,1010,TZ,1732704047
147,Alotau,-10.3069,150.4462,78.31,93,79,0.67,1010,PG,1732703617
148,Afaahiti,-17.75,-149.2833,77.54,80,85,12.33,1013,PF,1732703675
149,São Félix do Xingu,-6.6447,-51.995,79.9,73,98,1.72,1011,BR,1732704050
150,Koné,-21.0595,164.8658,77.59,88,89,5.41,1014,NC,1732703760
151,Port Lincoln,-34.7333,135.8667,59.5,79,100,20.36,1014,AU,1732704052
152,College,64.8569,-147.8028,-4.05,77,75,0.0,1036,US,1732704053
153,Sorong,-0.8833,131.25,83.53,73,100,2.15,1007,ID,1732704055
154,Fortuna,40.5982,-124.1573,40.35,98,40,9.22,1024,US,1732703565
155,Rémire-Montjoly,4.9167,-52.2667,75.24,100,75,2.3,1012,GF,1732704057
156,Stephenville,32.2207,-98.2023,57.33,82,0,10.36,1009,US,1732704058
157,Altay,47.8667,88.1167,22.89,63,0,7.81,1038,CN,1732703897
158,Klaksvík,62.2266,-6.589,44.11,74,94,16.44,1015,FO,1732704060
159,Whitehorse,60.7161,-135.0538,14.77,85,100,6.91,1026,CA,1732704061
160,Necochea,-38.5473,-58.7368,66.31,57,49,4.21,1011,AR,1732703877
161,Mutum Biyu,8.6333,10.7667,90.73,18,0,9.33,1013,NG,1732704064
162,Robertsport,6.7533,-11.3686,82.83,68,7,0.69,1013,LR,1732703471
163,Ilulissat,69.2167,-51.1,10.42,67,75,17.27,1029,GL,1732704066
164,Mazagão,-0.115,-51.2894,81.12,71,25,4.74,1011,BR,1732703695
165,Timimoun,29.2639,0.231,72.03,29,15,8.52,1024,DZ,1732704068
166,Naracoorte,-36.9579,140.7383,58.39,80,15,5.32,1006,AU,1732704069
167,Humberto de Campos,-2.5983,-43.4611,84.56,62,88,9.78,1012,BR,1732704071
168,Nchelenge,-9.3451,28.734,80.01,60,52,8.41,1010,ZM,1732704073
169,Saint-Joseph,-21.3667,55.6167,80.98,78,23,11.27,1016,RE,1732704074
170,Saint-Philippe,-21.3585,55.7679,77.77,76,7,13.0,1017,RE,1732704075
171,Westport,41.1415,-73.3579,41.83,76,0,5.99,1016,US,1732704077
172,Lys'va,58.1086,57.8053,22.32,93,5,0.69,1029,RU,1732704079
173,Rosarito,32.3333,-117.0333,56.32,79,100,6.69,1017,MX,1732704080
174,Talnakh,69.4865,88.3972,24.44,96,100,7.78,995,RU,1732704081
175,Howard Springs,-12.497,131.047,83.82,84,96,3.96,1006,AU,1732704082
176,Pontianak,-0.0333,109.3333,84.18,79,20,3.44,1007,ID,1732704083
177,Gulf Shores,30.246,-87.7008,62.02,85,100,0.0,1017,US,1732704084
178,Port Douglas,-16.4833,145.4667,80.4,81,59,9.06,1011,AU,1732703923
179,Taro,-8.3862,115.28,71.08,99,100,0.45,1008,ID,1732704087
180,Bamyan,34.75,67.25,40.86,22,0,3.53,1019,AF,1732704088
181,Camlachie,43.036,-82.1616,32.77,77,100,6.91,1017,CA,1732704089
182,Kiunga,-6.1219,141.2906,76.69,97,100,1.01,1007,PG,1732704091
183,Tôlanaro,-25.0319,46.9987,89.67,62,0,26.46,1011,MG,1732704092
184,Arraial do Cabo,-22.9661,-42.0278,76.86,73,0,11.5,1012,BR,1732703875
185,Yemetsk,63.4721,41.7941,35.4,99,100,2.93,1017,RU,1732704095
186,Vila Franca do Campo,37.7167,-25.4333,68.41,99,84,23.73,1004,PT,1732704096
187,Bocas del Toro,9.3333,-82.25,76.46,91,100,11.61,1010,PA,1732704097
188,Port Mathurin,-19.6833,63.4167,76.73,72,55,21.68,1014,MU,1732703822
189,Chonchi,-42.6128,-73.8092,43.12,89,10,0.6,1017,CL,1732704100
190,Kulhudhuffushi,6.6221,73.07,82.74,71,100,12.21,1007,MV,1732704103
191,Brisas de Zicatela,15.8369,-97.0419,72.1,46,0,5.41,1012,MX,1732704104
192,Vila Velha,-20.3297,-40.2925,76.95,74,0,12.66,1015,BR,1732703670
193,Lā‘ie,21.6477,-157.9253,72.79,89,13,10.76,1017,US,1732703727
194,Alpena,45.0617,-83.4327,32.32,84,100,6.91,1014,US,1732703706
195,Papao,-17.75,-149.55,76.68,79,78,13.11,1013,PF,1732703687
196,Kavalerovo,44.2661,135.0572,27.5,90,100,5.55,999,RU,1732704110
197,Tisaiyanvilai,8.3333,77.8833,78.84,76,100,5.97,1006,IN,1732704111
198,Lagan,45.3929,47.3707,42.37,95,100,13.78,1015,RU,1732704112
199,Gucheng Chengguanzhen,32.266,111.6348,48.92,36,2,4.54,1026,CN,1732704113
200,Kununurra,-15.7667,128.7333,84.18,84,93,0.0,1006,AU,1732704114
201,Tangalle,6.024,80.7911,81.48,77,100,18.16,1003,LK,1732704115
202,Rādhanpur,23.8333,71.6,88.02,19,0,7.61,1011,IN,1732704116
203,Santa Ana de Yacuma,-13.75,-65.4333,78.75,89,75,6.91,1009,BO,1732703769
204,Inírida,3.8653,-67.9239,75.47,95,93,0.89,1010,CO,1732703607
205,Cidreira,-30.1811,-50.2056,75.45,77,5,3.87,1009,BR,1732704120
206,Lakhtinskiy,59.9911,30.1597,41.18,95,100,3.09,1015,RU,1732704121
207,San Jose,37.3394,-121.895,50.58,91,0,1.01,1021,US,1732703886
208,Basey,11.2817,125.0683,78.39,89,73,3.69,1010,PH,1732704123
209,Vorgashor,67.5833,63.95,33.21,98,100,21.52,1006,RU,1732704124
210,Dzüünharaa,48.8523,106.4579,16.99,88,89,2.77,1033,MN,1732704125
211,Port Elizabeth,-33.918,25.5701,71.89,67,20,31.07,1012,ZA,1732704126
212,Durazno,-33.4131,-56.5006,73.99,86,76,6.38,1008,UY,1732703846
213,Ubinskoye,55.3068,79.6802,14.38,91,9,3.11,1035,RU,1732704129
214,Logroño,42.4667,-2.45,45.9,81,0,0.0,1024,ES,1732704130
215,Sosnogorsk,63.6023,53.8817,33.98,99,100,6.24,1019,RU,1732704132
216,Kerikeri,-35.2268,173.9474,61.92,86,26,3.65,1024,NZ,1732704133
217,El Vendrell,41.2167,1.5333,62.76,81,61,1.01,1024,ES,1732704134
218,Zahedan,29.4963,60.8629,76.91,29,20,13.8,1012,IR,1732704135
219,Thompson,55.7435,-97.8558,15.96,100,100,2.3,1024,CA,1732704137
220,Ketchikan,55.3422,-131.6461,41.77,100,100,4.61,1020,US,1732704139
221,Tosontsengel,48.7567,98.2839,3.2,94,69,2.17,1050,MN,1732704140
222,Río Cauto,20.5603,-76.9161,70.45,97,100,3.8,1013,CU,1732704141
223,Puerto Armuelles,8.2833,-82.8667,77.09,90,98,5.01,1009,PA,1732704142
224,Rajin,42.2489,130.3003,26.11,41,41,12.75,1006,KP,1732704143
225,Khovd,48.0056,91.6419,18.43,62,2,3.33,1043,MN,1732704144
226,Khagrachhari,23.1,91.9667,68.56,63,85,0.96,1011,BD,1732704146
227,Demirci,39.0461,28.6589,47.1,52,67,2.04,1023,TR,1732704147
228,Berezovyy,51.6667,135.7,19.9,95,100,4.99,1011,RU,1732704148
229,Haiku-Pauwela,20.9219,-156.3051,72.25,81,0,8.05,1017,US,1732704149
230,Timaru,-44.4,171.25,60.08,86,47,1.01,1016,NZ,1732704150
231,Nyaunglebin,17.95,96.7333,78.06,82,99,3.49,1009,MM,1732704151
232,Ujae,8.9322,165.7642,82.45,80,100,20.31,1010,MH,1732704152
233,Northam,51.0333,-4.2167,44.62,91,100,10.16,1015,GB,1732704153
234,Champerico,14.3,-91.9167,74.89,78,0,4.85,1011,GT,1732704155
235,Taoudenni,22.6783,-3.9836,79.29,19,59,11.39,1020,ML,1732704156
236,Slave Lake,55.2834,-114.769,6.78,78,100,16.11,1028,CA,1732704157
237,Vilyuysk,63.7553,121.6247,-2.43,96,100,7.85,1019,RU,1732704159
238,Odawara,35.2556,139.1597,59.67,49,0,23.15,1006,JP,1732704160
239,Vilyuchinsk,52.9306,158.4028,30.47,75,8,8.5,1015,RU,1732704161
240,Egilsstadir,65.2653,-14.3948,26.51,74,0,6.91,1007,IS,1732704163
241,Lebu,-37.6167,-73.65,48.88,90,3,4.0,1018,CL,1732704164
242,Aasiaat,68.7098,-52.8699,0.14,98,91,8.75,1027,GL,1732704165
243,Goz Beida,13.95,20.55,82.08,19,96,5.61,1014,TD,1732704166
244,Miðvágur,62.0511,-7.1939,43.63,81,40,13.8,1016,FO,1732704167
245,Melendugno,40.2747,18.3368,64.06,72,0,2.3,1023,IT,1732704168
246,Inarajan Village,13.2736,144.7484,83.39,86,36,18.54,1011,GU,1732704169
247,Grand-Bassam,5.2118,-3.7388,85.96,58,0,5.64,1013,CI,1732704170
248,Kavaratti,10.5669,72.642,82.87,67,96,9.28,1007,IN,1732704172
249,Mīzan Teferī,6.9833,35.5833,71.44,84,76,1.59,1012,ET,1732704173
250,Wynyard,-41.0,145.7167,64.18,95,86,2.28,1004,AU,1732704174
251,Gbadolite,4.2833,21.0167,89.76,27,66,4.63,1011,CD,1732704175
252,Mhangura,-16.8939,30.1683,88.27,35,75,8.05,1008,ZW,1732704176
253,Boa Esperança,-21.09,-45.5658,73.06,61,43,5.12,1015,BR,1732704177
254,Aswān,24.0934,32.907,67.3,37,0,10.36,1018,EG,1732704178
255,Okhotsk,59.3833,143.3,7.56,73,100,8.61,1025,RU,1732704179
256,Bugene,-1.5911,31.1403,69.15,76,79,4.61,1011,TZ,1732704181
257,Amga,60.8953,131.9608,-5.96,98,100,1.43,1027,RU,1732704182
258,Nueva Gerona,21.8833,-82.8,73.44,83,1,9.91,1016,CU,1732704183
259,As Sulayyil,20.4607,45.5779,90.0,16,0,4.94,1010,SA,1732704184
260,Tak,16.5833,98.8333,68.95,90,100,4.92,1012,TH,1732704185
261,Suncho Corral,-27.9336,-63.4294,77.67,79,52,10.8,1003,AR,1732704186
262,Sisimiut,66.9395,-53.6735,10.49,78,75,15.66,1025,GL,1732704187
263,San Mariano,7.5,126.0,74.21,95,100,2.62,1009,PH,1732704188
264,Winkler,49.1817,-97.941,14.22,92,86,0.0,1023,CA,1732703967
265,Taroa,8.7058,171.2275,82.0,80,94,17.78,1010,MH,1732704191
266,Doka,13.5167,35.7667,87.8,17,82,10.18,1011,SD,1732704192
267,Al Mindak,20.1588,41.2834,64.92,54,2,9.71,1015,SA,1732704193
268,Luang Prabang,19.8856,102.1347,80.56,61,75,6.91,1014,LA,1732704194
269,Kyosai,34.8503,128.5886,41.16,62,72,24.74,1016,KR,1732704195
270,Hammerfest,70.6634,23.6821,36.05,69,75,16.11,1011,NO,1732704196
271,San Ignacio,17.1561,-89.0714,65.1,98,7,2.55,1016,BZ,1732704199
272,Port Alfred,-33.5906,26.891,73.18,66,2,10.0,1011,ZA,1732704200
273,Bol'sherech'ye,56.0925,74.6272,12.92,90,5,4.36,1033,RU,1732704201
274,Ta`ū,-14.2336,-169.5144,81.23,83,99,14.58,1011,AS,1732704202
275,Barakani,-12.1356,44.4317,83.79,70,95,10.2,1011,KM,1732704203
276,Souillac,-20.5167,57.5167,80.98,65,75,16.11,1015,MU,1732704204
277,Sur,22.5667,59.5289,84.87,43,0,7.99,1012,OM,1732703974
278,Rancho Palos Verdes,33.7445,-118.387,60.42,97,100,3.51,1017,US,1732704036
279,Kourou,5.1552,-52.6478,80.83,78,7,7.29,1012,GF,1732704208
280,Kouango,4.9934,19.9619,90.9,24,99,4.68,1011,CF,1732704209
281,Örnsköldsvik,63.2909,18.7153,27.55,80,22,5.75,1016,SE,1732704210
282,Boa Vista,2.8197,-60.6733,76.98,83,20,3.44,1011,BR,1732703984
283,Cecerleg,47.475,101.4542,21.4,60,91,6.02,1034,MN,1732704212
284,Itoman,26.1247,127.6694,66.58,59,75,18.41,1021,JP,1732703830
285,West Bay,19.3667,-81.4167,77.05,86,62,23.78,1013,KY,1732704214
286,Quellón,-43.1167,-73.6167,48.02,88,20,2.62,1017,CL,1732704216
287,Ust'-Kalmanka,52.1207,83.305,15.96,92,33,1.25,1035,RU,1732704217
288,Fort McMurray,56.7268,-111.381,11.79,85,100,13.8,1023,CA,1732704218
289,Avarua,-21.2078,-159.775,71.65,94,100,1.14,1015,CK,1732704219
290,Iskateley,67.6803,53.1512,31.32,90,100,12.41,1012,RU,1732703852
291,Changyŏn,38.2508,125.0961,33.64,63,100,18.41,1011,KP,1732704221
292,Ust'-Uda,54.1742,103.0304,33.35,66,100,13.15,1026,RU,1732704222
293,Margate,51.3813,1.3862,48.87,92,100,25.79,1005,GB,1732704093
294,Angamacutiro de la Unión,20.1667,-101.6833,48.02,46,0,2.35,1020,MX,1732704225
295,Aitape,-3.1374,142.3475,79.75,87,78,5.01,1008,PG,1732704226
296,Kiama,-34.6833,150.8667,77.58,69,100,6.06,1009,AU,1732704227
297,Tobelo,1.7284,128.0095,82.76,78,37,3.94,1008,ID,1732704228
298,Cotonou,6.3654,2.4183,85.98,74,40,4.61,1012,BJ,1732704229
299,Hrazdan,40.4975,44.7662,29.73,95,100,8.52,1017,AM,1732704230
300,Guerrero Negro,27.9769,-114.0611,61.48,86,100,12.82,1015,MX,1732704231
301,Nagqu Prefecture,31.5,92.0,25.45,37,96,7.96,1008,CN,1732704234
302,Bubaque,11.2833,-15.8333,81.68,68,0,3.44,1013,GW,1732704235
303,Constanța,44.1833,28.65,45.7,71,98,11.27,1025,RO,1732704236
304,Finisterra,42.9049,-9.2629,59.22,83,100,26.17,1022,ES,1732704237
305,Baley,51.6,116.6333,-1.91,93,100,1.23,1020,RU,1732704238
306,Utrik,11.2278,169.8474,82.87,80,75,21.72,1011,MH,1732703846
307,Lata,40.1629,-8.3327,57.92,54,67,2.71,1024,PT,1732704240
308,Povarovo,56.0667,37.05,26.22,83,91,6.29,1024,RU,1732704242
309,Panabá,21.2833,-88.2667,70.03,94,3,4.76,1016,MX,1732704243
310,Verkhniye Sergi,56.6469,59.5556,28.76,81,0,0.89,1029,RU,1732704244
311,Takoradze,4.8845,-1.7554,85.91,60,0,5.55,1013,GH,1732704245
312,North Bend,43.4065,-124.2243,42.26,100,20,6.91,1027,US,1732704246
313,Kushiro,42.975,144.3747,49.15,100,75,4.61,1001,JP,1732704247
314,Ambovombe,-25.1667,46.0833,91.45,47,2,11.1,1009,MG,1732704251
315,Karratha,-20.7377,116.8463,82.76,63,99,14.54,1006,AU,1732704252
316,Ibarra,0.35,-78.1167,53.74,86,63,2.77,1017,EC,1732704253
317,Monrovia,6.3005,-10.7969,84.02,64,8,1.72,1013,LR,1732704254
318,Caarapó,-22.6342,-54.8222,83.64,56,93,8.84,1010,BR,1732704257
319,Serowe,-22.3833,26.7167,94.41,25,34,13.58,1004,BW,1732704258
320,Hardenberg,52.5758,6.6194,44.13,91,100,17.4,1012,NL,1732704259
321,Nola,40.922,14.5329,66.61,80,46,4.32,1024,IT,1732704260
322,São Pedro do Sul,-29.6206,-54.1789,73.9,80,88,4.09,1009,BR,1732704261
323,Santiago de Cao,-7.9589,-79.2392,60.93,94,40,2.3,1013,PE,1732704262
324,Pascagoula,30.3658,-88.5561,59.0,88,100,4.61,1017,US,1732704263
325,Bikenibeu Village,1.3673,173.1241,84.16,70,40,11.5,1009,KI,1732704265
326,Águas Vermelhas,-15.7472,-41.46,69.49,81,91,4.27,1017,BR,1732704124
327,Mogadishu,2.0371,45.3438,85.87,79,20,10.36,1009,SO,1732704198
328,Badger,64.8,-147.5333,-4.13,77,40,0.0,1036,US,1732704268
329,Arteche,12.2645,125.4048,79.21,91,80,8.37,1010,PH,1732704269
330,El Granada,37.5027,-122.4694,51.62,94,75,3.44,1021,US,1732704270
331,Alice Springs,-23.7,133.8833,81.95,39,93,10.36,1009,AU,1732704271
332,Bidbid,23.4079,58.1283,81.86,27,0,10.83,1012,OM,1732704272
333,Dunda,-8.1167,34.25,93.78,22,100,3.69,1007,TZ,1732704274
334,Palmer,42.1584,-72.3287,32.9,99,32,4.32,1015,US,1732704275
335,Dudinka,69.4058,86.1778,25.81,97,100,12.97,994,RU,1732704276
336,Pawni,20.7833,79.6333,77.05,36,44,8.32,1011,IN,1732704277
337,Box Elder,41.5005,-112.8764,34.02,72,52,5.14,1023,US,1732704278
338,Salalah,17.0151,54.0924,84.29,65,40,9.22,1012,OM,1732704279
339,Kendari,-3.945,122.4989,78.48,88,95,1.52,1007,ID,1732703997
340,Cockburn Town,21.4612,-71.1419,77.41,81,100,20.49,1014,TC,1732704283
341,Al Bawīţī,28.3492,28.8659,67.17,40,30,10.89,1022,EG,1732704284
342,San Carlos,9.6612,-68.5827,75.6,80,59,1.77,1010,VE,1732704285
343,Longboat Key,27.4125,-82.659,59.02,100,100,3.44,1018,US,1732704286
344,Xigazê,29.25,88.8833,40.5,17,22,3.78,1004,CN,1732704287
345,Vimperk,49.0586,13.7829,45.28,80,100,3.09,1024,CZ,1732704142
346,Cartagena del Chairá,1.3349,-74.8429,75.13,93,100,3.0,1010,CO,1732704289
347,Ust-Nera,64.5667,143.2,-15.92,98,95,3.04,1034,RU,1732704291
348,Caleta de Carquín,-11.0925,-77.6267,64.71,87,100,4.99,1013,PE,1732704292
349,Lompoc,34.6391,-120.4579,57.69,90,100,3.44,1018,US,1732704293
350,Pariaman,-0.619,100.12,84.25,79,100,2.86,1006,ID,1732704294
351,Barguzin,53.6167,109.6167,8.56,94,89,2.48,1029,RU,1732704295
352,Yaren,-0.5472,166.916,82.42,76,42,15.43,1009,NR,1732704296
353,Summerland,49.5998,-119.6691,32.18,76,100,2.3,1027,CA,1732704297
354,Howrah,22.5892,88.3103,78.8,57,40,6.91,1011,IN,1732703775
355,Sitia,35.2,26.0986,61.57,70,24,7.14,1022,GR,1732704300
356,Gwadar,25.1216,62.3254,81.9,63,0,13.96,1012,PK,1732704247
357,Rūdsar,37.1376,50.288,58.37,95,50,9.28,1012,IR,1732704302
358,Urangan,-25.3,152.9,76.24,85,24,11.54,1014,AU,1732704303
359,Puerto Aisén,-45.4,-72.7,46.81,100,100,1.92,1018,CL,1732704220
360,Puerto Santa,-8.9906,-78.6456,64.22,87,99,5.21,1013,PE,1732704305
361,Lázaro Cárdenas,17.9583,-102.2,72.95,92,6,3.89,1013,MX,1732704121
362,Strathalbyn,-35.2667,138.9,60.51,95,15,13.22,1010,AU,1732704307
363,Markala,13.7021,-6.0659,89.24,13,0,12.01,1015,ML,1732704309
364,Malango,-2.9627,119.9001,69.17,99,57,2.01,1010,ID,1732704310
365,Taguatinga,-12.3857,-46.5711,77.43,75,93,2.84,1013,BR,1732704312
366,Waynesville,35.4887,-82.9887,44.73,86,88,3.0,1018,US,1732704313
367,Al Khārijah,25.4514,30.5464,68.04,31,0,16.67,1020,EG,1732703776
368,Peterhead,57.5058,-1.7981,42.94,75,69,8.1,1017,GB,1732704315
369,Yanykurgan,43.915,67.2481,54.23,26,0,3.09,1019,KZ,1732704316
370,El Hadjira,32.6134,5.5126,70.18,36,17,7.25,1024,DZ,1732704318
371,Grahamstown,-33.3042,26.5328,70.12,37,25,26.57,1010,ZA,1732704149
372,Atafu Village,-8.5421,-172.5159,83.55,69,74,11.05,1010,TK,1732704320
373,Lerwick,60.1545,-1.1494,39.76,63,8,3.4,1018,GB,1732704321
374,Puerto Deseado,-47.7503,-65.8938,50.61,73,95,11.07,1014,AR,1732704322
375,Chirkey,42.9613,46.9787,44.85,65,93,11.7,1014,RU,1732704323
376,Vernon,50.2581,-119.2691,30.43,85,79,2.3,1026,CA,1732704324
377,Elgin,42.0373,-88.2812,34.83,77,100,1.01,1016,US,1732704199
378,Illintsi,49.1048,29.2177,31.48,98,98,7.63,1024,UA,1732704327
379,Acaraú,-2.8856,-40.12,80.96,70,87,16.02,1013,BR,1732704328
380,Valparaíso,-33.0393,-71.6273,46.04,93,0,3.44,1016,CL,1732704169
381,Dāmghān,36.1683,54.348,61.74,32,98,4.65,1010,IR,1732704330
382,Uturoa,-16.7333,-151.4333,80.71,77,49,13.38,1012,PF,1732704331
383,Mugia,43.1041,-9.2179,59.18,81,98,24.32,1021,ES,1732704332
384,Pundong,-7.9522,110.3486,80.47,84,95,5.55,1007,ID,1732704334
385,Acajutla,13.5928,-89.8275,76.8,70,0,8.14,1010,SV,1732704335
386,Kédougou,12.5579,-12.1743,84.78,37,0,4.61,1014,SN,1732704337
387,Cromer,52.9312,1.2989,44.6,91,100,31.38,1006,GB,1732704338
388,Ambam,2.3833,11.2833,85.26,51,43,3.22,1012,CM,1732704339
389,Kirakira,-10.4544,161.9205,81.19,85,100,6.08,1011,SB,1732704340
390,Mīāndoāb,36.9694,46.1027,44.51,33,68,11.74,1015,IR,1732704342
391,Grand Falls-Windsor,48.9332,-55.6649,34.5,93,78,1.01,1015,CA,1732704001
392,Pagar Alam,-4.0167,103.2667,72.34,96,99,1.66,1009,ID,1732704344
393,Mermoz Boabab,14.7065,-17.4758,80.38,69,0,6.91,1014,SN,1732704345
394,Kapuskasing,49.4169,-82.4331,24.89,93,100,16.11,1005,CA,1732704346
395,Panama City Beach,30.1766,-85.8055,63.0,98,100,1.99,1017,US,1732704264
396,Sungai Penuh,-2.0833,101.3833,69.96,92,99,1.86,1009,ID,1732704348
397,Haldībāri,26.3333,88.7667,73.65,52,40,4.61,1012,IN,1732704349
398,Xilin Hot,43.9667,116.0333,12.88,82,100,19.42,1018,CN,1732704351
399,Richards Bay,-28.783,32.0377,73.85,84,90,20.49,1004,ZA,1732704352
400,Hawkesbury,45.6001,-74.616,32.74,85,76,13.6,1010,CA,1732704353
401,Yoichi,43.2039,140.7703,40.98,76,74,10.63,1004,JP,1732704354
402,Belmonte,-15.8631,-38.8828,78.62,68,95,5.12,1016,BR,1732704355
403,Anna Regina,7.2644,-58.5077,81.86,76,8,11.88,1011,GY,1732704356
404,Warud,21.4667,78.2667,78.33,29,10,7.78,1012,IN,1732704357
405,Yamada,39.4667,141.95,49.19,81,84,6.35,1005,JP,1732704358
406,Ghat,24.9647,10.1728,67.03,20,51,5.79,1023,LY,1732704360
407,Otofuke,42.9917,143.2003,45.55,88,50,4.85,1002,JP,1732704362
408,Tommot,58.9564,126.2925,-13.97,100,95,0.38,1029,RU,1732704363
409,Caçu,-18.5567,-51.1308,78.01,73,44,6.15,1013,BR,1732704364
410,Selkirk,50.1436,-96.8845,20.17,96,79,3.0,1020,CA,1732704302
411,Tsiombe,-25.3,45.4833,98.11,33,7,14.16,1009,MG,1732704366
412,Villa Ojo de Agua,-29.5,-63.6938,69.33,98,98,10.02,1006,AR,1732704367
413,San Fernando,15.0286,120.6898,85.73,77,33,5.26,1011,PH,1732704369
414,San Antonio de Palé,-1.4014,5.6325,78.84,82,78,9.08,1013,GQ,1732704370
415,Baldeogarh,24.755,79.0681,76.82,28,4,6.55,1013,IN,1732704371
416,Smirnykh,49.75,142.8333,32.29,99,100,13.06,1009,RU,1732704372
417,Kasur,31.1156,74.4467,78.58,15,0,4.54,1013,PK,1732704373
418,Nantucket,41.2835,-70.0995,43.14,70,0,15.64,1016,US,1732704374
419,Qiancheng,27.185,109.7654,56.1,65,68,3.36,1026,CN,1732704375
420,Belyy Yar,53.6039,91.3903,8.49,92,40,0.0,1039,RU,1732704377
421,Saint Croix,17.7397,-64.7388,77.95,86,75,5.75,1013,VI,1732704310
422,Ash Shaţrah,31.4117,46.1742,65.14,19,75,19.95,1019,IQ,1732704338
423,Terrace,54.5163,-128.6035,21.11,93,100,4.61,1027,CA,1732704380
424,Zayed City,24.3768,54.589,91.45,31,0,6.91,1012,AE,1732704381
425,Alta,69.9689,23.2717,34.86,71,75,13.8,1012,NO,1732704382
426,Sigtuna,59.6173,17.7236,40.41,100,100,5.75,1012,SE,1732704383
427,Tual,-5.6667,132.75,85.24,68,26,4.61,1007,ID,1732704385
428,Carahue,-38.7,-73.1667,48.31,87,4,0.69,1018,CL,1732704386
429,Kalengwa,-13.4659,25.0027,81.93,52,88,6.55,1010,ZM,1732704387
430,Aleksandrovsk-Sakhalinskiy,50.8975,142.1561,31.33,86,100,5.28,1009,RU,1732704388
431,Kingscliff,-28.2667,153.5667,75.94,94,75,12.66,1015,AU,1732704389
432,Mankera,31.3866,71.4407,80.58,15,0,3.09,1012,PK,1732704390
433,Sidareja,-7.4846,108.7923,78.85,89,83,3.69,1007,ID,1732704391
434,I-n-Salah,27.1935,2.4607,74.16,21,0,16.53,1022,DZ,1732704392
435,Nemuro,43.3236,145.575,51.04,99,100,11.59,1001,JP,1732704394
436,Vadsø,70.0744,29.7487,32.16,69,0,23.02,1010,NO,1732704395
437,Prairie Grove,35.9759,-94.3177,44.38,70,0,0.0,1010,US,1732704396
438,Mukalla,14.5425,49.1242,81.37,59,29,10.65,1012,YE,1732704397
439,Novaya Ladoga,60.1025,32.3019,35.44,97,100,6.15,1016,RU,1732704398
440,Pisco,-13.7,-76.2167,65.01,94,100,6.91,1013,PE,1732704399
441,Province of Mantua,45.1667,10.7833,50.61,94,99,5.01,1024,IT,1732703987
442,Sofifi,0.7349,127.576,81.43,81,92,2.06,1008,ID,1732704401
443,Mālvan,16.0667,73.4667,84.63,50,66,12.5,1007,IN,1732704404
444,Morondava,-20.2833,44.2833,87.64,65,0,15.43,1010,MG,1732704405
445,Morant Bay,17.8815,-76.4093,77.0,90,100,8.57,1012,JM,1732704406
446,San Julián,21.0167,-102.1667,49.14,40,0,2.91,1019,MX,1732704373
447,Mbala,-8.8402,31.3659,75.94,56,64,2.53,1011,ZM,1732704408
448,Coxen Hole,16.3244,-86.5366,79.88,78,20,6.91,1014,HN,1732704409
449,Ulladulla,-35.35,150.4667,73.51,66,100,3.42,1008,AU,1732704413
450,Pyt-Yakh,60.7499,72.8582,31.86,77,91,10.09,1023,RU,1732704414
451,Skellefteå,64.7507,20.9528,21.56,100,0,5.75,1016,SE,1732704415
452,Thabazimbi,-24.5917,27.4116,94.17,24,27,14.52,1002,ZA,1732704416
453,Montepuez,-13.1256,38.9997,96.44,28,75,6.89,1008,MZ,1732704417
454,Gadzhiyevo,69.2551,33.3362,22.75,74,6,24.7,1011,RU,1732704419
455,Mount Gambier,-37.8333,140.7667,53.67,96,13,2.95,1006,AU,1732704420
456,Darazo,10.9938,10.4118,82.17,23,0,10.71,1015,NG,1732704421
457,Petauke,-14.2426,31.3253,84.97,40,76,7.78,1008,ZM,1732704422
458,Conde,-7.2597,-34.9075,78.26,78,75,5.75,1015,BR,1732704423
459,Magadan,59.5667,150.8,11.46,64,0,5.37,1024,RU,1732704424
460,Mammoth Lakes,37.6485,-118.9721,24.26,63,0,14.97,1031,US,1732704425
461,Vilhena,-12.7406,-60.1458,72.97,89,98,4.23,1012,BR,1732704426
462,Carnarvon,-24.8667,113.6333,78.66,56,0,27.83,1004,AU,1732704428
463,Hafar Al-Batin,28.4328,45.9708,64.98,59,40,16.11,1018,SA,1732704429
464,Murzuk,25.9155,13.9184,63.81,35,59,8.23,1025,LY,1732704430
465,Sulaymaniyah,35.5611,45.4375,46.83,66,75,11.5,1019,IQ,1732704431
466,Kapaa,22.0752,-159.319,73.47,86,0,5.75,1018,US,1732704432
467,Hasaki,35.7333,140.8333,64.45,53,39,27.85,1005,JP,1732704433
468,Malye Derbety,47.9547,44.6808,39.72,71,100,11.01,1019,RU,1732704434
469,Mapimí,25.8167,-103.85,59.54,54,24,2.01,1014,MX,1732704436
470,Ulanhot,46.0833,122.0833,18.82,92,100,5.99,1001,CN,1732704437
471,Touros,-5.1989,-35.4608,82.81,57,97,15.12,1014,BR,1732704438
472,Kharovsk,59.9642,40.1912,28.99,84,70,7.52,1021,RU,1732704439
473,Leava,-14.3,-178.1667,81.61,80,71,11.36,1012,WF,1732704440
474,Steamboat Springs,40.485,-106.8317,29.7,93,100,3.44,1018,US,1732704441
475,São Vicente,-23.9631,-46.3919,82.98,26,100,4.85,1012,BR,1732704442
476,Languyan,5.2618,120.0807,79.25,86,69,5.99,1007,PH,1732704443
477,Kangding,30.0513,101.9603,30.43,97,85,3.83,1026,CN,1732704445
478,Childress,34.4264,-100.204,55.65,54,0,13.8,1004,US,1732704211
479,Holualoa,19.6228,-155.9522,71.44,74,0,0.0,1017,US,1732704447
480,Birjand,32.8663,59.2211,73.87,21,40,9.22,1013,IR,1732704433
481,Badīyah,22.45,58.8,87.96,27,0,0.89,1012,OM,1732704449
482,Berdigestyakh,62.0989,126.6992,-27.49,100,24,3.22,1028,RU,1732704248
483,Hachinohe,40.5,141.5,48.87,69,82,11.56,1005,JP,1732704453
484,Matanzas,23.0411,-81.5775,70.56,94,0,4.61,1016,CU,1732704454
485,Mashhad,36.297,59.6062,66.34,45,75,4.61,1010,IR,1732704455
486,Hotan,37.0997,79.9269,41.76,25,0,2.86,1033,CN,1732704456
487,Dezhou,37.4486,116.2925,36.32,44,23,7.9,1017,CN,1732704457
488,Sapulpa,35.9987,-96.1142,46.11,78,0,4.61,1008,US,1732704458
489,Cabedelo,-6.9811,-34.8339,79.47,59,98,12.82,1015,BR,1732704459
490,Mahina,-17.5065,-149.489,76.77,78,0,3.44,1013,PF,1732704460
491,New Norfolk,-42.7826,147.0587,61.92,98,100,4.41,1007,AU,1732704462
492,Erenhot,43.6475,111.9767,18.5,61,21,17.36,1024,CN,1732704463
493,Polokwane,-23.9045,29.4688,88.65,33,40,17.27,1005,ZA,1732704464
494,Labuan,5.2767,115.2417,84.56,79,20,11.99,1006,MY,1732704465
495,El Rama,12.1596,-84.2195,74.75,91,100,5.37,1011,NI,1732704466
496,Banda Aceh,5.5577,95.3222,78.39,85,100,10.92,1008,ID,1732704467
497,Corowa,-36.0333,146.3833,68.41,95,27,2.24,1006,AU,1732704468
498,Filey,54.21,-0.2892,42.78,46,100,1.01,1013,GB,1732704471
499,Severo-Yeniseyskiy,60.3725,93.0408,27.12,88,100,15.52,1016,RU,1732704472
500,Kabalo,-6.05,26.9167,72.97,85,100,5.75,1013,CD,1732704473
501,Al Bayḑā’,32.7627,21.7551,59.7,61,74,15.05,1024,LY,1732704474
502,Rajaori,33.3833,74.3,64.06,27,0,5.61,1014,IN,1732704475
503,Nova Viçosa,-17.8919,-39.3719,78.39,65,25,6.49,1016,BR,1732704476
504,Queenstown,-31.8976,26.8753,71.15,24,43,19.35,1009,ZA,1732704477
505,Antofagasta,-23.65,-70.4,63.68,85,70,5.48,1015,CL,1732704479
506,Dzhalagash,45.0833,64.6667,47.64,41,0,5.3,1020,KZ,1732704480
507,Moultonborough,43.7548,-71.3967,35.28,97,48,1.01,1012,US,1732704481
508,Arica,-18.475,-70.3042,67.46,80,100,2.8,1014,CL,1732704238
509,Auki,-8.7676,160.7034,78.1,89,100,4.76,1010,SB,1732704483
510,Michigan City,41.7075,-86.895,35.08,79,40,0.0,1016,US,1732704261
511,Hauzenberg,48.65,13.6333,44.19,99,100,0.96,1024,DE,1732704485
512,Armidale,-30.5167,151.65,68.5,50,100,5.46,1013,AU,1732704487
513,Awjilah,29.1081,21.2869,65.23,40,0,5.06,1026,LY,1732704488
514,Noshiro,40.2039,140.0242,49.03,72,84,8.7,1006,JP,1732704489
515,Cambridge,43.3601,-80.3127,30.09,81,20,8.77,1016,CA,1732704480
516,Dunedin,-45.8742,170.5036,55.8,99,68,3.0,1014,NZ,1732704491
517,Tyre,33.2733,35.1939,61.83,60,57,7.49,1021,LB,1732704492
518,Puerto Baquerizo Moreno,-0.9,-89.6,70.14,80,79,13.04,1013,EC,1732704493
519,Gannan,47.9147,123.5031,16.02,97,100,2.3,1001,CN,1732704494
520,Binhe,32.6883,112.8275,47.44,37,0,7.67,1026,CN,1732704495
521,Wad Medani,14.4012,33.5199,84.0,15,6,12.93,1013,SD,1732704408
522,Daru,-9.0763,143.2092,81.68,86,98,10.65,1007,PG,1732704498
523,Kuraymah,18.55,31.85,74.77,19,60,13.09,1016,SD,1732704499
524,Barcelos,41.5388,-8.6151,58.77,64,95,3.89,1024,PT,1732704500
525,Lodja,-3.4833,23.4333,78.33,76,99,1.9,1013,CD,1732704501
526,Hadibu,12.65,54.0333,81.48,59,31,10.51,1011,YE,1732704502
527,Vine Grove,37.8101,-85.9814,39.27,88,100,5.75,1017,US,1732704503
528,Yeniseysk,58.4497,92.1703,32.09,74,100,9.66,1023,RU,1732704504
529,Puerto Escondido,15.85,-97.0667,72.61,47,0,5.37,1012,MX,1732704343
530,Rexburg,43.826,-111.7897,26.82,100,100,5.75,1024,US,1732704507
531,Ruovesi,61.9858,24.0571,39.11,97,100,2.93,1012,FI,1732704508
532,Hailey,43.5196,-114.3153,22.86,74,0,9.22,1027,US,1732704509
533,Ryōtsu-minato,38.0833,138.4333,46.92,80,79,18.19,1007,JP,1732704510
534,Taku,39.0211,117.6469,37.36,27,4,14.03,1014,CN,1732704511
535,Ceeldheer,3.8488,47.1806,86.5,58,68,15.59,1009,SO,1732704512
536,Portland,45.5234,-122.6762,45.1,95,100,4.0,1028,US,1732704280
537,Polyarny,69.1989,33.4478,23.0,74,5,23.67,1011,RU,1732704515
538,Veinticinco de Mayo,-35.4323,-60.1727,69.94,78,78,7.56,1009,AR,1732704516
539,Enriquillo,17.9,-71.2333,76.06,84,98,10.18,1013,DO,1732704517
540,Marabu,4.4148,114.0089,82.54,89,40,0.0,1006,MY,1732704499
541,Kailua-Kona,19.6406,-155.9956,75.16,72,0,0.0,1016,US,1732704519
542,Tahe,52.3333,124.7333,20.57,95,100,7.7,1007,CN,1732704520
543,Čakovec,46.3844,16.4339,47.01,52,100,1.01,1026,HR,1732704521
544,Dusa Marreb,5.535,46.3861,94.3,34,42,10.58,1007,SO,1732704522
545,Jamaame,0.0697,42.745,89.74,52,72,11.9,1008,SO,1732704524
546,Urengoy,65.9667,78.3667,34.43,96,100,18.3,1005,RU,1732704525
547,Kovdor,67.5662,30.4758,11.84,94,5,4.61,1017,RU,1732704526
548,Kolwezi,-10.7148,25.4667,70.61,78,85,10.18,1012,CD,1732704527
549,Birobidzhan,48.8,132.95,15.39,93,97,5.28,1003,RU,1732704528
550,Palikir,6.9248,158.1611,81.34,83,100,5.75,1009,FM,1732704355
551,Sishui,35.6489,117.2758,37.2,47,0,7.94,1019,CN,1732704530
552,Kitsuki,33.4167,131.6167,48.0,76,20,13.8,1015,JP,1732704531
553,Ranot,7.7777,100.3213,75.18,89,100,6.08,1009,TH,1732704533
554,Carleton Place,45.1334,-76.1494,32.67,82,24,5.99,1011,CA,1732704534
555,Soyo,-6.1349,12.3689,76.39,87,100,2.1,1013,AO,1732704535
556,Hanzhong,33.0728,107.0303,46.22,34,79,2.46,1029,CN,1732704536
557,Sydney Mines,46.2367,-60.2177,41.77,96,100,6.91,1011,CA,1732704537
558,Ola,59.5833,151.2833,7.32,82,4,7.74,1025,RU,1732704538
559,São Gabriel da Cachoeira,-0.1303,-67.0892,73.69,97,26,1.99,1010,BR,1732704539
560,Lizzanello,40.3041,18.2225,65.03,72,0,2.3,1023,IT,1732704540
561,Swift Current,50.2834,-107.8014,9.41,92,100,16.11,1026,CA,1732704542
562,Trevelin,-43.0858,-71.4639,44.1,80,95,2.21,1018,AR,1732704543
563,Dakhla,23.6848,-15.958,77.02,33,100,10.36,1017,EH,1732704544
564,São Francisco de Assis,-29.5503,-55.1311,74.71,79,67,5.28,1009,BR,1732704545
565,Bandar Labuan,5.2888,115.2692,84.56,79,20,11.99,1006,MY,1732704546
566,Dzhezkazgan,47.7833,67.7667,39.78,65,0,11.18,1024,KZ,1732704547
567,Kuanda,56.3161,116.0806,-13.14,96,97,1.36,1032,RU,1732704548
568,Ribeira Brava,32.65,-17.0667,70.43,76,92,5.17,1020,PT,1732704549
569,Katabu,-4.9333,122.5167,77.86,91,90,2.33,1007,ID,1732704551
570,Karak,31.1637,35.762,50.63,51,0,8.66,1021,JO,1732704552
571,Spring Creek,40.7266,-115.5859,26.89,91,54,5.01,1027,US,1732704553
572,Sabancuy,18.9667,-91.1833,67.73,90,1,4.9,1016,MX,1732704554
573,Lüderitz,-26.6481,15.1594,76.57,38,33,30.56,1013,NA,1732704555
574,Yelizovo,53.1873,158.3805,30.34,59,0,6.71,1016,RU,1732704556
575,Bengkulu,-3.8004,102.2655,80.94,84,100,10.25,1006,ID,1732704555
576,Scottburgh,-30.2867,30.7532,64.99,91,100,22.66,1008,ZA,1732704558
577,Crucecita,-28.95,-58.9833,71.15,91,100,6.13,1007,AR,1732704560
578,Palāsa,18.7667,84.4167,74.35,55,92,11.21,1011,IN,1732704561
579,Mhamid,29.82,-5.72,71.1,28,34,2.86,1025,MA,1732704562
580,Zhirnovsk,50.9845,44.7735,34.39,65,80,6.82,1023,RU,1732704563
581,Volodarskiy,46.4013,48.5409,41.77,83,100,13.6,1016,RU,1732704564
582,Lingyuan,41.24,119.4011,18.43,62,82,5.68,1010,CN,1732704565
583,Talakan,50.3167,130.3667,17.78,89,99,2.01,1005,RU,1732704566
584,Qarazhal,48.0078,70.7903,29.82,79,0,7.02,1027,KZ,1732704522
585,Piti Village,13.4626,144.6933,83.3,82,20,12.66,1011,GU,1732704569
586,San Felipe,10.3399,-68.7425,70.95,98,86,0.98,1011,VE,1732704570
587,El Porvenir,13.7617,-87.3458,67.96,85,0,5.37,1013,HN,1732704571
588,Undurkhaan,47.3194,110.6556,19.45,51,25,15.26,1023,MN,1732704572
589,Quryq,43.2,51.65,54.81,48,96,11.1,1013,KZ,1732704573
